{
    "station": [
        {
            "key": "188790",
            "name": "Abisko Aut",
            "owner": "SMHI",
            "ownerCategory": "SMHI",
            "from": 1539676850000,
            "to": 1637222400000,
            "height": 392.303,
            "latitude": 68.3538,
            "longitude": 18.8164,
            "value": [
                {
                    "date": 1637222400000,
                    "value": "3.1",
                    "quality": "G"
                }
            ]
        },
        {
            "key": "97280",
            "name": "Adelsö A",
            "owner": "SMHI",
            "ownerCategory": "SMHI",
            "from": 818985600000,
            "to": 1637222400000,
            "height": 5.612,
            "latitude": 59.3579,
            "longitude": 17.5213,
            "value": [
                {
                    "date": 1637222400000,
                    "value": "3.7",
                    "quality": "G"
                }
            ]
        },
        {
            "key": "167710",
            "name": "Arjeplog A",
            "owner": "SMHI",
            "ownerCategory": "SMHI",
            "from": 961372800000,
            "to": 1637222400000,
            "height": 430.839,
            "latitude": 66.0513,
            "longitude": 17.8396,
            "value": [
                {
                    "date": 1637222400000,
                    "value": "2.2",
                    "quality": "G"
                }
            ]
        },
        {
            "key": "159880",
            "name": "Arvidsjaur A",
            "owner": "SMHI",
            "ownerCategory": "SMHI",
            "from": 823132800000,
            "to": 1637222400000,
            "height": 382.45,
            "latitude": 65.5941,
            "longitude": 19.2642,
            "value": [
                {
                    "date": 1637222400000,
                    "value": "1.5",
                    "quality": "G"
                }
            ]
        },
        {
            "key": "92410",
            "name": "Arvika A",
            "owner": "SMHI",
            "ownerCategory": "SMHI",
            "from": 820454400000,
            "to": 1637222400000,
            "height": 65.758,
            "latitude": 59.6743,
            "longitude": 12.6354,
            "value": [
                {
                    "date": 1637222400000,
                    "value": "0.0",
                    "quality": "G"
                }
            ]
        },
        {
            "key": "84340",
            "name": "Axstål Mo",
            "owner": "Försvarsmakten",
            "ownerCategory": "SMHI",
            "from": 1149120000000,
            "to": 1637222400000,
            "height": 88.5,
            "latitude": 58.571,
            "longitude": 14.557,
            "value": null
        },
        {
            "key": "62180",
            "name": "Barkåkra",
            "owner": "Swedavia",
            "ownerCategory": "SMHI",
            "from": 1199145600000,
            "to": 1637222400000,
            "height": 18.0,
            "latitude": 56.2979,
            "longitude": 12.8441,
            "value": [
                {
                    "date": 1637222400000,
                    "value": "8.0",
                    "quality": "G"
                }
            ]
        },
        {
            "key": "98040",
            "name": "Berga Mo",
            "owner": "Försvarsmakten",
            "ownerCategory": "SMHI",
            "from": 1267401600000,
            "to": 1637222400000,
            "height": 4.3,
            "latitude": 59.068,
            "longitude": 18.115,
            "value": [
                {
                    "date": 1637222400000,
                    "value": "2.0",
                    "quality": "G"
                }
            ]
        },
        {
            "key": "151280",
            "name": "Bjuröklubb A",
            "owner": "SMHI",
            "ownerCategory": "SMHI",
            "from": 818985600000,
            "to": 1637222400000,
            "height": 35.41,
            "latitude": 64.4799,
            "longitude": 21.5754,
            "value": [
                {
                    "date": 1637222400000,
                    "value": "7.4",
                    "quality": "G"
                }
            ]
        },
        {
            "key": "92130",
            "name": "Blomskog A",
            "owner": "SMHI",
            "ownerCategory": "SMHI",
            "from": 820454400000,
            "to": 1637222400000,
            "height": 169.645,
            "latitude": 59.2213,
            "longitude": 12.0754,
            "value": [
                {
                    "date": 1637222400000,
                    "value": "0.0",
                    "quality": "G"
                }
            ]
        },
        {
            "key": "132110",
            "name": "Blåhammaren A",
            "owner": "SMHI",
            "ownerCategory": "SMHI",
            "from": 1285891200000,
            "to": 1637222400000,
            "height": 1086.952,
            "latitude": 63.1854,
            "longitude": 12.1734,
            "value": [
                {
                    "date": 1637222400000,
                    "value": "6.4",
                    "quality": "G"
                }
            ]
        },
        {
            "key": "161940",
            "name": "Boden Mo",
            "owner": "Försvarsmakten",
            "ownerCategory": "SMHI",
            "from": 1267401600000,
            "to": 1637222400000,
            "height": 25.2,
            "latitude": 65.814,
            "longitude": 21.635,
            "value": [
                {
                    "date": 1637222400000,
                    "value": "2.0",
                    "quality": "G"
                }
            ]
        },
        {
            "key": "105260",
            "name": "Borlänge Flygplats",
            "owner": "Flygplatsbolag (kommun/landsting)",
            "ownerCategory": "SMHI",
            "from": 820454400000,
            "to": 1637222400000,
            "height": 152.0,
            "latitude": 60.4294,
            "longitude": 15.5079,
            "value": [
                {
                    "date": 1637222400000,
                    "value": "1.0",
                    "quality": "G"
                }
            ]
        },
        {
            "key": "102390",
            "name": "Brattmon V",
            "owner": "Trafikverket",
            "ownerCategory": "SMHI",
            "from": 823132800000,
            "to": 1637222400000,
            "height": 199.0,
            "latitude": 60.7569,
            "longitude": 12.7723,
            "value": null
        },
        {
            "key": "127130",
            "name": "Brämön A",
            "owner": "SMHI",
            "ownerCategory": "SMHI",
            "from": 812505600000,
            "to": 1637222400000,
            "height": 18.13,
            "latitude": 62.2198,
            "longitude": 17.739,
            "value": [
                {
                    "date": 1637222400000,
                    "value": "2.3",
                    "quality": "G"
                }
            ]
        },
        {
            "key": "157870",
            "name": "Buresjön A",
            "owner": "SMHI",
            "ownerCategory": "SMHI",
            "from": 814665600000,
            "to": 1637222400000,
            "height": 394.05,
            "latitude": 65.558,
            "longitude": 17.8554,
            "value": [
                {
                    "date": 1637222400000,
                    "value": "0.6",
                    "quality": "G"
                }
            ]
        },
        {
            "key": "123460",
            "name": "Börtnan A",
            "owner": "SMHI",
            "ownerCategory": "SMHI",
            "from": 818985600000,
            "to": 1637222400000,
            "height": 467.246,
            "latitude": 62.7548,
            "longitude": 13.8427,
            "value": [
                {
                    "date": 1637222400000,
                    "value": "0.0",
                    "quality": "G"
                }
            ]
        },
        {
            "key": "94390",
            "name": "Daglösen A",
            "owner": "SMHI",
            "ownerCategory": "SMHI",
            "from": 807235200000,
            "to": 1637222400000,
            "height": 133.077,
            "latitude": 59.6612,
            "longitude": 14.1803,
            "value": [
                {
                    "date": 1637222400000,
                    "value": "0.7",
                    "quality": "G"
                }
            ]
        },
        {
            "key": "116490",
            "name": "Delsbo A",
            "owner": "SMHI",
            "ownerCategory": "SMHI",
            "from": 817776000000,
            "to": 1637222400000,
            "height": 70.667,
            "latitude": 61.8264,
            "longitude": 16.5385,
            "value": [
                {
                    "date": 1637222400000,
                    "value": "1.2",
                    "quality": "G"
                }
            ]
        },
        {
            "key": "123060",
            "name": "Dravagen A",
            "owner": "SMHI",
            "ownerCategory": "SMHI",
            "from": 814665600000,
            "to": 1637222400000,
            "height": 566.642,
            "latitude": 62.0936,
            "longitude": 13.6086,
            "value": [
                {
                    "date": 1637222400000,
                    "value": "0.0",
                    "quality": "G"
                }
            ]
        },
        {
            "key": "115220",
            "name": "Edsbyn A",
            "owner": "SMHI",
            "ownerCategory": "SMHI",
            "from": 820454400000,
            "to": 1637222400000,
            "height": 183.648,
            "latitude": 61.3607,
            "longitude": 15.7144,
            "value": [
                {
                    "date": 1637222400000,
                    "value": "0.0",
                    "quality": "G"
                }
            ]
        },
        {
            "key": "62530",
            "name": "Eftra-Broen V",
            "owner": "Trafikverket",
            "ownerCategory": "SMHI",
            "from": 870393600000,
            "to": 1637222400000,
            "height": 10.0,
            "latitude": 56.8625,
            "longitude": 12.6628,
            "value": null
        },
        {
            "key": "107440",
            "name": "Eggegrund A",
            "owner": "SMHI",
            "ownerCategory": "SMHI",
            "from": 812505600000,
            "to": 1637222400000,
            "height": 3.731,
            "latitude": 60.7298,
            "longitude": 17.5584,
            "value": null
        },
        {
            "key": "97370",
            "name": "Enköping Mo",
            "owner": "Försvarsmakten",
            "ownerCategory": "SMHI",
            "from": 1188604800000,
            "to": 1637222400000,
            "height": 24.6,
            "latitude": 59.65,
            "longitude": 17.12,
            "value": [
                {
                    "date": 1637222400000,
                    "value": "1.0",
                    "quality": "G"
                }
            ]
        },
        {
            "key": "82350",
            "name": "Erikstad-Bergarud V",
            "owner": "Trafikverket",
            "ownerCategory": "SMHI",
            "from": 823132800000,
            "to": 1637222400000,
            "height": 59.0,
            "latitude": 58.6003,
            "longitude": 12.413,
            "value": null
        },
        {
            "key": "96190",
            "name": "Eskilstuna A",
            "owner": "SMHI",
            "ownerCategory": "SMHI",
            "from": 1200636000000,
            "to": 1637222400000,
            "height": 12.577,
            "latitude": 59.3821,
            "longitude": 16.4526,
            "value": [
                {
                    "date": 1637222400000,
                    "value": "4.2",
                    "quality": "G"
                }
            ]
        },
        {
            "key": "52230",
            "name": "Falsterbo",
            "owner": "SMHI",
            "ownerCategory": "SMHI",
            "from": -915148800000,
            "to": 1637222400000,
            "height": 1.541,
            "latitude": 55.3837,
            "longitude": 12.8167,
            "value": null
        },
        {
            "key": "52240",
            "name": "Falsterbo A",
            "owner": "SMHI",
            "ownerCategory": "SMHI",
            "from": 1246406400000,
            "to": 1637222400000,
            "height": 1.575,
            "latitude": 55.3837,
            "longitude": 12.8166,
            "value": [
                {
                    "date": 1637222400000,
                    "value": "9.7",
                    "quality": "G"
                }
            ]
        },
        {
            "key": "107140",
            "name": "Film A",
            "owner": "SMHI",
            "ownerCategory": "SMHI",
            "from": 959731200000,
            "to": 1637222400000,
            "height": 33.381,
            "latitude": 60.2358,
            "longitude": 17.9043,
            "value": [
                {
                    "date": 1637222400000,
                    "value": "1.1",
                    "quality": "G"
                }
            ]
        },
        {
            "key": "122430",
            "name": "Flatruet V",
            "owner": "Trafikverket",
            "ownerCategory": "SMHI",
            "from": 823132800000,
            "to": 1637222400000,
            "height": 932.0,
            "latitude": 62.7291,
            "longitude": 12.7264,
            "value": null
        },
        {
            "key": "96040",
            "name": "Floda A",
            "owner": "SMHI",
            "ownerCategory": "SMHI",
            "from": 816912000000,
            "to": 1637222400000,
            "height": 31.337,
            "latitude": 59.0558,
            "longitude": 16.3944,
            "value": [
                {
                    "date": 1637222400000,
                    "value": "3.3",
                    "quality": "G"
                }
            ]
        },
        {
            "key": "148040",
            "name": "Fredrika A",
            "owner": "SMHI",
            "ownerCategory": "SMHI",
            "from": 820454400000,
            "to": 1637222400000,
            "height": 327.684,
            "latitude": 64.0744,
            "longitude": 18.3619,
            "value": [
                {
                    "date": 1637222400000,
                    "value": "1.6",
                    "quality": "G"
                }
            ]
        },
        {
            "key": "134110",
            "name": "Frösön",
            "owner": "Swedavia",
            "ownerCategory": "SMHI",
            "from": 1555200000,
            "to": 1637222400000,
            "height": 376.0,
            "latitude": 63.1974,
            "longitude": 14.4863,
            "value": [
                {
                    "date": 1637222400000,
                    "value": "5.0",
                    "quality": "G"
                }
            ]
        },
        {
            "key": "78550",
            "name": "Fårösund Ar A",
            "owner": "SMHI",
            "ownerCategory": "SMHI",
            "from": 820454400000,
            "to": 1637222400000,
            "height": 12.756,
            "latitude": 57.9165,
            "longitude": 18.9533,
            "value": [
                {
                    "date": 1637222400000,
                    "value": "9.3",
                    "quality": "G"
                }
            ]
        },
        {
            "key": "134410",
            "name": "Föllinge A",
            "owner": "SMHI",
            "ownerCategory": "SMHI",
            "from": 817776000000,
            "to": 1637222400000,
            "height": 361.8,
            "latitude": 63.6761,
            "longitude": 14.6048,
            "value": null
        },
        {
            "key": "155790",
            "name": "Gielas A",
            "owner": "SMHI",
            "ownerCategory": "SMHI",
            "from": 844128000000,
            "to": 1637222400000,
            "height": 578.328,
            "latitude": 65.3269,
            "longitude": 15.0645,
            "value": [
                {
                    "date": 1637222400000,
                    "value": "2.1",
                    "quality": "G"
                }
            ]
        },
        {
            "key": "76420",
            "name": "Gladhammar A",
            "owner": "SMHI",
            "ownerCategory": "SMHI",
            "from": 807235200000,
            "to": 1637222400000,
            "height": 35.277,
            "latitude": 57.7068,
            "longitude": 16.4526,
            "value": [
                {
                    "date": 1637222400000,
                    "value": "3.7",
                    "quality": "G"
                }
            ]
        },
        {
            "key": "89230",
            "name": "Gotska Sandön A",
            "owner": "SMHI",
            "ownerCategory": "SMHI",
            "from": 818985600000,
            "to": 1637222400000,
            "height": 15.911,
            "latitude": 58.3939,
            "longitude": 19.194,
            "value": [
                {
                    "date": 1637222400000,
                    "value": "6.0",
                    "quality": "G"
                }
            ]
        },
        {
            "key": "145130",
            "name": "Gubbhögen A",
            "owner": "SMHI",
            "ownerCategory": "SMHI",
            "from": 818985600000,
            "to": 1637222400000,
            "height": 310.221,
            "latitude": 64.2172,
            "longitude": 15.5529,
            "value": [
                {
                    "date": 1637222400000,
                    "value": "0.0",
                    "quality": "G"
                }
            ]
        },
        {
            "key": "147560",
            "name": "Gunnarn A",
            "owner": "SMHI",
            "ownerCategory": "SMHI",
            "from": 1230768000000,
            "to": 1637222400000,
            "height": 275.491,
            "latitude": 65.0094,
            "longitude": 17.6993,
            "value": [
                {
                    "date": 1637222400000,
                    "value": "1.6",
                    "quality": "G"
                }
            ]
        },
        {
            "key": "103100",
            "name": "Gustavsfors A",
            "owner": "SMHI",
            "ownerCategory": "SMHI",
            "from": 807235200000,
            "to": 1637222400000,
            "height": 187.153,
            "latitude": 60.1533,
            "longitude": 13.799,
            "value": [
                {
                    "date": 1637222400000,
                    "value": "0.0",
                    "quality": "G"
                }
            ]
        },
        {
            "key": "144310",
            "name": "Gäddede A",
            "owner": "SMHI",
            "ownerCategory": "SMHI",
            "from": 1199145600000,
            "to": 1637222400000,
            "height": 553.025,
            "latitude": 64.5044,
            "longitude": 14.2207,
            "value": [
                {
                    "date": 1637222400000,
                    "value": "3.0",
                    "quality": "G"
                }
            ]
        },
        {
            "key": "180760",
            "name": "Gällivare A",
            "owner": "SMHI",
            "ownerCategory": "SMHI",
            "from": 818985600000,
            "to": 1637222400000,
            "height": 358.975,
            "latitude": 67.1407,
            "longitude": 20.6413,
            "value": [
                {
                    "date": 1637222400000,
                    "value": "2.4",
                    "quality": "G"
                }
            ]
        },
        {
            "key": "107420",
            "name": "Gävle A",
            "owner": "SMHI",
            "ownerCategory": "SMHI",
            "from": 807235200000,
            "to": 1637222400000,
            "height": 16.125,
            "latitude": 60.7161,
            "longitude": 17.1607,
            "value": [
                {
                    "date": 1637222400000,
                    "value": "1.0",
                    "quality": "G"
                }
            ]
        },
        {
            "key": "84520",
            "name": "Gårdsjö A",
            "owner": "SMHI",
            "ownerCategory": "SMHI",
            "from": 807235200000,
            "to": 1637222400000,
            "height": 210.675,
            "latitude": 58.8768,
            "longitude": 14.3875,
            "value": [
                {
                    "date": 1637222400000,
                    "value": "1.1",
                    "quality": "G"
                }
            ]
        },
        {
            "key": "71420",
            "name": "Göteborg A",
            "owner": "SMHI",
            "ownerCategory": "SMHI",
            "from": 920246400000,
            "to": 1637222400000,
            "height": 3.038,
            "latitude": 57.7156,
            "longitude": 11.9924,
            "value": [
                {
                    "date": 1637222400000,
                    "value": "2.4",
                    "quality": "G"
                }
            ]
        },
        {
            "key": "74180",
            "name": "Hagshult Mo",
            "owner": "Försvarsmakten",
            "ownerCategory": "SMHI",
            "from": 830908800000,
            "to": 1637222400000,
            "height": 169.6,
            "latitude": 57.292,
            "longitude": 14.137,
            "value": [
                {
                    "date": 1637222400000,
                    "value": "4.0",
                    "quality": "G"
                }
            ]
        },
        {
            "key": "62260",
            "name": "Hallands Väderö A",
            "owner": "SMHI",
            "ownerCategory": "SMHI",
            "from": 807235200000,
            "to": 1637222400000,
            "height": 9.172,
            "latitude": 56.4496,
            "longitude": 12.5453,
            "value": [
                {
                    "date": 1637222400000,
                    "value": "10.7",
                    "quality": "G"
                }
            ]
        },
        {
            "key": "135460",
            "name": "Hallhåxåsen A",
            "owner": "SMHI",
            "ownerCategory": "SMHI",
            "from": 817776000000,
            "to": 1637222400000,
            "height": 375.391,
            "latitude": 63.7685,
            "longitude": 15.3279,
            "value": [
                {
                    "date": 1637222400000,
                    "value": "2.4",
                    "quality": "G"
                }
            ]
        },
        {
            "key": "62410",
            "name": "Halmstad flygplats",
            "owner": "Flygplatsbolag (kommun/landsting)",
            "ownerCategory": "SMHI",
            "from": 1617235200000,
            "to": 1637222400000,
            "height": 31.0,
            "latitude": 56.6833,
            "longitude": 12.8167,
            "value": [
                {
                    "date": 1637222400000,
                    "value": "8.0",
                    "quality": "G"
                }
            ]
        },
        {
            "key": "114410",
            "name": "Hamra A",
            "owner": "SMHI",
            "ownerCategory": "SMHI",
            "from": 818985600000,
            "to": 1637222400000,
            "height": 453.588,
            "latitude": 61.6599,
            "longitude": 14.9918,
            "value": [
                {
                    "date": 1637222400000,
                    "value": "2.1",
                    "quality": "G"
                }
            ]
        },
        {
            "key": "64020",
            "name": "Hanö A",
            "owner": "SMHI",
            "ownerCategory": "SMHI",
            "from": 817776000000,
            "to": 1637222400000,
            "height": 58.622,
            "latitude": 56.0135,
            "longitude": 14.8463,
            "value": [
                {
                    "date": 1637222400000,
                    "value": "10.0",
                    "quality": "G"
                }
            ]
        },
        {
            "key": "163960",
            "name": "Haparanda A",
            "owner": "SMHI",
            "ownerCategory": "SMHI",
            "from": 1225497600000,
            "to": 1637222400000,
            "height": 13.243,
            "latitude": 65.8237,
            "longitude": 24.1112,
            "value": [
                {
                    "date": 1637222400000,
                    "value": "0.9",
                    "quality": "G"
                }
            ]
        },
        {
            "key": "87140",
            "name": "Harstena A",
            "owner": "SMHI",
            "ownerCategory": "SMHI",
            "from": 818985600000,
            "to": 1637222400000,
            "height": 14.0,
            "latitude": 58.2505,
            "longitude": 17.0106,
            "value": [
                {
                    "date": 1637222400000,
                    "value": "3.9",
                    "quality": "G"
                }
            ]
        },
        {
            "key": "62040",
            "name": "Helsingborg A",
            "owner": "SMHI",
            "ownerCategory": "SMHI",
            "from": 807235200000,
            "to": 1637222400000,
            "height": 43.0,
            "latitude": 56.0304,
            "longitude": 12.7653,
            "value": [
                {
                    "date": 1637222400000,
                    "value": "4.1",
                    "quality": "G"
                }
            ]
        },
        {
            "key": "155970",
            "name": "Hemavan Flygplats",
            "owner": "Flygplatsbolag (kommun/landsting)",
            "ownerCategory": "SMHI",
            "from": 1199145600000,
            "to": 1637222400000,
            "height": 458.0,
            "latitude": 65.8077,
            "longitude": 15.0854,
            "value": [
                {
                    "date": 1637222400000,
                    "value": "2.0",
                    "quality": "G"
                }
            ]
        },
        {
            "key": "155960",
            "name": "Hemavan-Gierevarto A",
            "owner": "SMHI",
            "ownerCategory": "SMHI",
            "from": 816872400000,
            "to": 1637222400000,
            "height": 793.504,
            "latitude": 65.7813,
            "longitude": 15.0623,
            "value": [
                {
                    "date": 1637222400000,
                    "value": "6.8",
                    "quality": "G"
                }
            ]
        },
        {
            "key": "138390",
            "name": "Hemling A",
            "owner": "SMHI",
            "ownerCategory": "SMHI",
            "from": 818985600000,
            "to": 1637222400000,
            "height": 182.186,
            "latitude": 63.6503,
            "longitude": 18.5466,
            "value": [
                {
                    "date": 1637222400000,
                    "value": "3.8",
                    "quality": "G"
                }
            ]
        },
        {
            "key": "68560",
            "name": "Hoburg A",
            "owner": "SMHI",
            "ownerCategory": "SMHI",
            "from": 1243814400000,
            "to": 1637222400000,
            "height": 34.118,
            "latitude": 56.9209,
            "longitude": 18.1506,
            "value": [
                {
                    "date": 1637222400000,
                    "value": "8.2",
                    "quality": "G"
                }
            ]
        },
        {
            "key": "140460",
            "name": "Holmön A",
            "owner": "SMHI",
            "ownerCategory": "SMHI",
            "from": 1114905600000,
            "to": 1637222400000,
            "height": 6.535,
            "latitude": 63.807,
            "longitude": 20.8645,
            "value": [
                {
                    "date": 1637222400000,
                    "value": "5.5",
                    "quality": "G"
                }
            ]
        },
        {
            "key": "75520",
            "name": "Horn A",
            "owner": "SMHI",
            "ownerCategory": "SMHI",
            "from": 818985600000,
            "to": 1637222400000,
            "height": 89.822,
            "latitude": 57.8861,
            "longitude": 15.8623,
            "value": [
                {
                    "date": 1637222400000,
                    "value": "1.9",
                    "quality": "G"
                }
            ]
        },
        {
            "key": "146050",
            "name": "Hoting A",
            "owner": "SMHI",
            "ownerCategory": "SMHI",
            "from": 823132800000,
            "to": 1637222400000,
            "height": 241.55,
            "latitude": 64.0875,
            "longitude": 16.2356,
            "value": [
                {
                    "date": 1637222400000,
                    "value": "2.0",
                    "quality": "G"
                }
            ]
        },
        {
            "key": "81370",
            "name": "Hud V",
            "owner": "Trafikverket",
            "ownerCategory": "SMHI",
            "from": 823132800000,
            "to": 1637222400000,
            "height": 95.0,
            "latitude": 58.6608,
            "longitude": 11.4178,
            "value": null
        },
        {
            "key": "125440",
            "name": "Hunge A",
            "owner": "SMHI",
            "ownerCategory": "SMHI",
            "from": 812937600000,
            "to": 1637222400000,
            "height": 343.238,
            "latitude": 62.7504,
            "longitude": 15.0845,
            "value": [
                {
                    "date": 1637222400000,
                    "value": "1.2",
                    "quality": "G"
                }
            ]
        },
        {
            "key": "62250",
            "name": "Hunnestorp V",
            "owner": "Trafikverket",
            "ownerCategory": "SMHI",
            "from": 846806400000,
            "to": 1637222400000,
            "height": 159.0,
            "latitude": 56.404,
            "longitude": 12.9436,
            "value": null
        },
        {
            "key": "83190",
            "name": "Hällum A",
            "owner": "SMHI",
            "ownerCategory": "SMHI",
            "from": 818985600000,
            "to": 1637222400000,
            "height": 70.071,
            "latitude": 58.3218,
            "longitude": 13.0379,
            "value": [
                {
                    "date": 1637222400000,
                    "value": "3.2",
                    "quality": "G"
                }
            ]
        },
        {
            "key": "63160",
            "name": "Hästveda Mo",
            "owner": "Försvarsmakten",
            "ownerCategory": "SMHI",
            "from": 1267401600000,
            "to": 1637222400000,
            "height": 102.5,
            "latitude": 56.28,
            "longitude": 13.9431,
            "value": [
                {
                    "date": 1637222400000,
                    "value": "4.0",
                    "quality": "G"
                }
            ]
        },
        {
            "key": "151240",
            "name": "Hökmarksberget V",
            "owner": "Trafikverket",
            "ownerCategory": "SMHI",
            "from": 823132800000,
            "to": 1637222400000,
            "height": 92.0,
            "latitude": 64.4358,
            "longitude": 21.28,
            "value": null
        },
        {
            "key": "53530",
            "name": "Hörby A",
            "owner": "SMHI",
            "ownerCategory": "SMHI",
            "from": 1623283200000,
            "to": 1637222400000,
            "height": 113.0,
            "latitude": 55.8624,
            "longitude": 13.6673,
            "value": [
                {
                    "date": 1637222400000,
                    "value": "3.7",
                    "quality": "G"
                }
            ]
        },
        {
            "key": "112540",
            "name": "Idre Fjäll A",
            "owner": "SMHI",
            "ownerCategory": "SMHI",
            "from": 815184000000,
            "to": 1637222400000,
            "height": 869.407,
            "latitude": 61.8886,
            "longitude": 12.8521,
            "value": [
                {
                    "date": 1637222400000,
                    "value": "3.9",
                    "quality": "G"
                }
            ]
        },
        {
            "key": "170860",
            "name": "Jokkmokk Flygplats Mo",
            "owner": "Försvarsmakten",
            "ownerCategory": "SMHI",
            "from": 951868800000,
            "to": 1637222400000,
            "height": 275.4,
            "latitude": 66.491,
            "longitude": 20.142,
            "value": [
                {
                    "date": 1637222400000,
                    "value": "3.0",
                    "quality": "G"
                }
            ]
        },
        {
            "key": "136410",
            "name": "Junsele A",
            "owner": "SMHI",
            "ownerCategory": "SMHI",
            "from": 1199145600000,
            "to": 1637222400000,
            "height": 218.766,
            "latitude": 63.6839,
            "longitude": 16.95,
            "value": [
                {
                    "date": 1637222400000,
                    "value": "1.0",
                    "quality": "G"
                }
            ]
        },
        {
            "key": "167800",
            "name": "Jäkkvik V",
            "owner": "Trafikverket",
            "ownerCategory": "SMHI",
            "from": 1291161600000,
            "to": 1637222400000,
            "height": 552.0,
            "latitude": 66.3242,
            "longitude": 17.0944,
            "value": null
        },
        {
            "key": "139260",
            "name": "Järnäsklubb A",
            "owner": "SMHI",
            "ownerCategory": "SMHI",
            "from": 818985600000,
            "to": 1637222400000,
            "height": 5.928,
            "latitude": 63.4351,
            "longitude": 19.6731,
            "value": [
                {
                    "date": 1637222400000,
                    "value": "3.0",
                    "quality": "G"
                }
            ]
        },
        {
            "key": "74460",
            "name": "Jönköpings flygplats",
            "owner": "Flygplatsbolag (kommun/landsting)",
            "ownerCategory": "SMHI",
            "from": -252460800000,
            "to": 1637222400000,
            "height": 226.0,
            "latitude": 57.7514,
            "longitude": 14.0733,
            "value": [
                {
                    "date": 1637222400000,
                    "value": "3.0",
                    "quality": "G"
                }
            ]
        },
        {
            "key": "66420",
            "name": "Kalmar flygplats",
            "owner": "Flygplatsbolag (kommun/landsting)",
            "ownerCategory": "SMHI",
            "from": 821188800000,
            "to": 1637222400000,
            "height": 6.0,
            "latitude": 56.6784,
            "longitude": 16.2922,
            "value": [
                {
                    "date": 1637222400000,
                    "value": "5.0",
                    "quality": "G"
                }
            ]
        },
        {
            "key": "192840",
            "name": "Karesuando A",
            "owner": "SMHI",
            "ownerCategory": "SMHI",
            "from": 1225497600000,
            "to": 1637222400000,
            "height": 329.68,
            "latitude": 68.4418,
            "longitude": 22.4435,
            "value": [
                {
                    "date": 1637222400000,
                    "value": "3.5",
                    "quality": "G"
                }
            ]
        },
        {
            "key": "84310",
            "name": "Karlsborg Mo",
            "owner": "Försvarsmakten",
            "ownerCategory": "SMHI",
            "from": 1201824000000,
            "to": 1637222400000,
            "height": 94.5,
            "latitude": 58.514,
            "longitude": 14.507,
            "value": [
                {
                    "date": 1637222400000,
                    "value": "4.0",
                    "quality": "G"
                }
            ]
        },
        {
            "key": "65090",
            "name": "Karlskrona-Söderstjerna Mo",
            "owner": "Försvarsmakten",
            "ownerCategory": "SMHI",
            "from": 1267401600000,
            "to": 1637222400000,
            "height": 2.4,
            "latitude": 56.15,
            "longitude": 15.589,
            "value": [
                {
                    "date": 1637222400000,
                    "value": "8.0",
                    "quality": "G"
                }
            ]
        },
        {
            "key": "93220",
            "name": "Karlstad Flygplats",
            "owner": "Flygplatsbolag (kommun/landsting)",
            "ownerCategory": "SMHI",
            "from": 875664000000,
            "to": 1637222400000,
            "height": 107.0,
            "latitude": 59.4446,
            "longitude": 13.3374,
            "value": [
                {
                    "date": 1637222400000,
                    "value": "2.0",
                    "quality": "G"
                }
            ]
        },
        {
            "key": "188850",
            "name": "Katterjåkk A",
            "owner": "SMHI",
            "ownerCategory": "SMHI",
            "from": 1225497600000,
            "to": 1637222400000,
            "height": 514.248,
            "latitude": 68.4202,
            "longitude": 18.168,
            "value": [
                {
                    "date": 1637222400000,
                    "value": "10.6",
                    "quality": "G"
                }
            ]
        },
        {
            "key": "106160",
            "name": "Kerstinbo A",
            "owner": "SMHI",
            "ownerCategory": "SMHI",
            "from": 807235200000,
            "to": 1637222400000,
            "height": 55.695,
            "latitude": 60.2683,
            "longitude": 16.9738,
            "value": [
                {
                    "date": 1637222400000,
                    "value": "0.6",
                    "quality": "G"
                }
            ]
        },
        {
            "key": "85460",
            "name": "Kettstaka A",
            "owner": "SMHI",
            "ownerCategory": "SMHI",
            "from": 807235200000,
            "to": 1637222400000,
            "height": 224.876,
            "latitude": 58.7162,
            "longitude": 15.0271,
            "value": [
                {
                    "date": 1637222400000,
                    "value": "2.7",
                    "quality": "G"
                }
            ]
        },
        {
            "key": "94190",
            "name": "Kilsbergen-Suttarboda A",
            "owner": "SMHI",
            "ownerCategory": "SMHI",
            "from": 807235200000,
            "to": 1637222400000,
            "height": 218.353,
            "latitude": 59.2996,
            "longitude": 14.8956,
            "value": [
                {
                    "date": 1637222400000,
                    "value": "3.1",
                    "quality": "G"
                }
            ]
        },
        {
            "key": "180940",
            "name": "Kiruna Flygplats",
            "owner": "Swedavia",
            "ownerCategory": "SMHI",
            "from": 820454400000,
            "to": 1637222400000,
            "height": 459.0,
            "latitude": 67.827,
            "longitude": 20.3387,
            "value": [
                {
                    "date": 1637222400000,
                    "value": "3.0",
                    "quality": "G"
                }
            ]
        },
        {
            "key": "95540",
            "name": "Kloten A",
            "owner": "SMHI",
            "ownerCategory": "SMHI",
            "from": 1249084800000,
            "to": 1637222400000,
            "height": 283.21,
            "latitude": 59.8703,
            "longitude": 15.2522,
            "value": [
                {
                    "date": 1637222400000,
                    "value": "1.3",
                    "quality": "G"
                }
            ]
        },
        {
            "key": "124300",
            "name": "Klövsjöhöjden A",
            "owner": "SMHI",
            "ownerCategory": "SMHI",
            "from": 820454400000,
            "to": 1637222400000,
            "height": 802.503,
            "latitude": 62.4952,
            "longitude": 14.1542,
            "value": [
                {
                    "date": 1637222400000,
                    "value": "8.9",
                    "quality": "G"
                }
            ]
        },
        {
            "key": "86420",
            "name": "Kolmården-Strömsfors A",
            "owner": "SMHI",
            "ownerCategory": "SMHI",
            "from": 818985600000,
            "to": 1637222400000,
            "height": 153.613,
            "latitude": 58.6892,
            "longitude": 16.3069,
            "value": [
                {
                    "date": 1637222400000,
                    "value": "3.0",
                    "quality": "G"
                }
            ]
        },
        {
            "key": "133500",
            "name": "Korsvattnet A",
            "owner": "SMHI",
            "ownerCategory": "SMHI",
            "from": 823132800000,
            "to": 1637222400000,
            "height": 716.605,
            "latitude": 63.8385,
            "longitude": 13.5009,
            "value": [
                {
                    "date": 1637222400000,
                    "value": "5.1",
                    "quality": "G"
                }
            ]
        },
        {
            "key": "65510",
            "name": "Kosta Mo",
            "owner": "Försvarsmakten",
            "ownerCategory": "SMHI",
            "from": 1109635200000,
            "to": 1637222400000,
            "height": 230.0,
            "latitude": 56.841,
            "longitude": 15.471,
            "value": null
        },
        {
            "key": "54990",
            "name": "Kristianstad V",
            "owner": "Trafikverket",
            "ownerCategory": "SMHI",
            "from": 1291161600000,
            "to": 1637222400000,
            "height": 7.0,
            "latitude": 56.0239,
            "longitude": 14.1027,
            "value": null
        },
        {
            "key": "82360",
            "name": "Kroppefjäll-Granan A",
            "owner": "SMHI",
            "ownerCategory": "SMHI",
            "from": 807235200000,
            "to": 1637222400000,
            "height": 173.75,
            "latitude": 58.6065,
            "longitude": 12.1973,
            "value": [
                {
                    "date": 1637222400000,
                    "value": "1.2",
                    "quality": "G"
                }
            ]
        },
        {
            "key": "136090",
            "name": "Krångede A",
            "owner": "SMHI",
            "ownerCategory": "SMHI",
            "from": 816912000000,
            "to": 1637222400000,
            "height": 183.123,
            "latitude": 63.1512,
            "longitude": 16.1699,
            "value": [
                {
                    "date": 1637222400000,
                    "value": "1.5",
                    "quality": "G"
                }
            ]
        },
        {
            "key": "117430",
            "name": "Kuggören A",
            "owner": "SMHI",
            "ownerCategory": "SMHI",
            "from": 818985600000,
            "to": 1637222400000,
            "height": 8.568,
            "latitude": 61.7027,
            "longitude": 17.5216,
            "value": [
                {
                    "date": 1637222400000,
                    "value": "5.3",
                    "quality": "G"
                }
            ]
        },
        {
            "key": "85390",
            "name": "Kvarn Mo",
            "owner": "Försvarsmakten",
            "ownerCategory": "SMHI",
            "from": 1267401600000,
            "to": 1637222400000,
            "height": 71.9,
            "latitude": 58.645,
            "longitude": 15.434,
            "value": [
                {
                    "date": 1637222400000,
                    "value": "2.0",
                    "quality": "G"
                }
            ]
        },
        {
            "key": "167990",
            "name": "Kvikkjokk-Årrenjarka A",
            "owner": "SMHI",
            "ownerCategory": "SMHI",
            "from": 1225497600000,
            "to": 1637222400000,
            "height": 314.692,
            "latitude": 66.8874,
            "longitude": 18.0198,
            "value": [
                {
                    "date": 1637222400000,
                    "value": "1.7",
                    "quality": "G"
                }
            ]
        },
        {
            "key": "83040",
            "name": "Kymbo V",
            "owner": "Trafikverket",
            "ownerCategory": "SMHI",
            "from": 823132800000,
            "to": 1637222400000,
            "height": 222.0,
            "latitude": 58.0794,
            "longitude": 13.785,
            "value": null
        },
        {
            "key": "171790",
            "name": "Lakaträsk A",
            "owner": "SMHI",
            "ownerCategory": "SMHI",
            "from": 816912000000,
            "to": 1637222400000,
            "height": 185.031,
            "latitude": 66.2789,
            "longitude": 21.1285,
            "value": [
                {
                    "date": 1637222400000,
                    "value": "0.9",
                    "quality": "G"
                }
            ]
        },
        {
            "key": "87440",
            "name": "Landsort A",
            "owner": "SMHI",
            "ownerCategory": "SMHI",
            "from": 823132800000,
            "to": 1637222400000,
            "height": 17.484,
            "latitude": 58.7429,
            "longitude": 17.8684,
            "value": [
                {
                    "date": 1637222400000,
                    "value": "8.0",
                    "quality": "G"
                }
            ]
        },
        {
            "key": "72420",
            "name": "Landvetter Flygplats",
            "owner": "Swedavia",
            "ownerCategory": "SMHI",
            "from": 1199145600000,
            "to": 1637222400000,
            "height": 154.0,
            "latitude": 57.6764,
            "longitude": 12.2919,
            "value": [
                {
                    "date": 1637222400000,
                    "value": "2.0",
                    "quality": "G"
                }
            ]
        },
        {
            "key": "180770",
            "name": "Latnivaara A",
            "owner": "SMHI",
            "ownerCategory": "SMHI",
            "from": 816912000000,
            "to": 1637222400000,
            "height": 453.191,
            "latitude": 67.2551,
            "longitude": 20.2704,
            "value": [
                {
                    "date": 1637222400000,
                    "value": "0.7",
                    "quality": "G"
                }
            ]
        },
        {
            "key": "166940",
            "name": "Lillviken-Roparudden V",
            "owner": "Trafikverket",
            "ownerCategory": "SMHI",
            "from": 828316800000,
            "to": 1637222400000,
            "height": 483.0,
            "latitude": 66.486,
            "longitude": 16.4173,
            "value": null
        },
        {
            "key": "63510",
            "name": "Ljungby A",
            "owner": "SMHI",
            "ownerCategory": "SMHI",
            "from": 807235200000,
            "to": 1637222400000,
            "height": 148.485,
            "latitude": 56.8525,
            "longitude": 13.8794,
            "value": [
                {
                    "date": 1637222400000,
                    "value": "2.9",
                    "quality": "G"
                }
            ]
        },
        {
            "key": "162860",
            "name": "Luleå Flygplats",
            "owner": "Försvarsmakten",
            "ownerCategory": "SMHI",
            "from": -882921600000,
            "to": 1637222400000,
            "height": 19.9,
            "latitude": 65.543,
            "longitude": 22.124,
            "value": [
                {
                    "date": 1637222400000,
                    "value": "2.0",
                    "quality": "G"
                }
            ]
        },
        {
            "key": "128390",
            "name": "Lungö A",
            "owner": "SMHI",
            "ownerCategory": "SMHI",
            "from": 808531200000,
            "to": 1637222400000,
            "height": 14.325,
            "latitude": 62.6417,
            "longitude": 18.0899,
            "value": null
        },
        {
            "key": "148330",
            "name": "Lycksele A",
            "owner": "SMHI",
            "ownerCategory": "SMHI",
            "from": 818985600000,
            "to": 1637222400000,
            "height": 210.07,
            "latitude": 64.5481,
            "longitude": 18.713,
            "value": [
                {
                    "date": 1637222400000,
                    "value": "0.9",
                    "quality": "G"
                }
            ]
        },
        {
            "key": "85050",
            "name": "Malexander A",
            "owner": "SMHI",
            "ownerCategory": "SMHI",
            "from": 812505600000,
            "to": 1637222400000,
            "height": 197.27,
            "latitude": 58.0716,
            "longitude": 15.233,
            "value": [
                {
                    "date": 1637222400000,
                    "value": "2.4",
                    "quality": "G"
                }
            ]
        },
        {
            "key": "85240",
            "name": "Malmslätt",
            "owner": "Försvarsmakten",
            "ownerCategory": "SMHI",
            "from": -1315008000000,
            "to": 1637222400000,
            "height": 94.0,
            "latitude": 58.398,
            "longitude": 15.523,
            "value": [
                {
                    "date": 1637222400000,
                    "value": "4.0",
                    "quality": "G"
                }
            ]
        },
        {
            "key": "52350",
            "name": "Malmö A",
            "owner": "SMHI",
            "ownerCategory": "SMHI",
            "from": 815184001000,
            "to": 1637222400000,
            "height": 19.757,
            "latitude": 55.5715,
            "longitude": 13.0708,
            "value": [
                {
                    "date": 1637222400000,
                    "value": "3.5",
                    "quality": "G"
                }
            ]
        },
        {
            "key": "103420",
            "name": "Malung A",
            "owner": "SMHI",
            "ownerCategory": "SMHI",
            "from": 1254355200000,
            "to": 1637222400000,
            "height": 302.583,
            "latitude": 60.6765,
            "longitude": 13.7072,
            "value": [
                {
                    "date": 1637222400000,
                    "value": "0.6",
                    "quality": "G"
                }
            ]
        },
        {
            "key": "158740",
            "name": "Malå-Brännan A",
            "owner": "SMHI",
            "ownerCategory": "SMHI",
            "from": 818985600000,
            "to": 1637222400000,
            "height": 363.111,
            "latitude": 65.1512,
            "longitude": 18.5935,
            "value": [
                {
                    "date": 1637222400000,
                    "value": "0.6",
                    "quality": "G"
                }
            ]
        },
        {
            "key": "133180",
            "name": "Mattmar V",
            "owner": "Trafikverket",
            "ownerCategory": "SMHI",
            "from": 823132800000,
            "to": 1637222400000,
            "height": 360.0,
            "latitude": 63.3054,
            "longitude": 13.8767,
            "value": null
        },
        {
            "key": "166910",
            "name": "Mierkenis A",
            "owner": "SMHI",
            "ownerCategory": "SMHI",
            "from": 846806400000,
            "to": 1637222400000,
            "height": 613.982,
            "latitude": 66.6802,
            "longitude": 16.1053,
            "value": [
                {
                    "date": 1637222400000,
                    "value": "2.4",
                    "quality": "G"
                }
            ]
        },
        {
            "key": "104580",
            "name": "Mora A",
            "owner": "SMHI",
            "ownerCategory": "SMHI",
            "from": 807235200000,
            "to": 1637222400000,
            "height": 195.417,
            "latitude": 60.9601,
            "longitude": 14.5041,
            "value": [
                {
                    "date": 1637222400000,
                    "value": "2.3",
                    "quality": "G"
                }
            ]
        },
        {
            "key": "75250",
            "name": "Målilla A",
            "owner": "SMHI",
            "ownerCategory": "SMHI",
            "from": 1199145600000,
            "to": 1637222400000,
            "height": 95.667,
            "latitude": 57.3845,
            "longitude": 15.8009,
            "value": [
                {
                    "date": 1637222400000,
                    "value": "3.1",
                    "quality": "G"
                }
            ]
        },
        {
            "key": "81050",
            "name": "Måseskär A",
            "owner": "SMHI",
            "ownerCategory": "SMHI",
            "from": 815184000000,
            "to": 1637222400000,
            "height": 14.973,
            "latitude": 58.0937,
            "longitude": 11.3312,
            "value": [
                {
                    "date": 1637222400000,
                    "value": "10.1",
                    "quality": "G"
                }
            ]
        },
        {
            "key": "191910",
            "name": "Naimakka A",
            "owner": "SMHI",
            "ownerCategory": "SMHI",
            "from": 814665600000,
            "to": 1637222400000,
            "height": 402.202,
            "latitude": 68.6762,
            "longitude": 21.5229,
            "value": [
                {
                    "date": 1637222400000,
                    "value": "0.6",
                    "quality": "G"
                }
            ]
        },
        {
            "key": "170930",
            "name": "Nattavaara A",
            "owner": "SMHI",
            "ownerCategory": "SMHI",
            "from": 828316800000,
            "to": 1637222400000,
            "height": 327.631,
            "latitude": 66.7516,
            "longitude": 20.9238,
            "value": [
                {
                    "date": 1637222400000,
                    "value": "1.2",
                    "quality": "G"
                }
            ]
        },
        {
            "key": "83420",
            "name": "Naven A",
            "owner": "SMHI",
            "ownerCategory": "SMHI",
            "from": 833587200000,
            "to": 1637222400000,
            "height": 53.0,
            "latitude": 58.6998,
            "longitude": 13.1109,
            "value": [
                {
                    "date": 1637222400000,
                    "value": "5.2",
                    "quality": "G"
                }
            ]
        },
        {
            "key": "191720",
            "name": "Nedre Soppero V",
            "owner": "Trafikverket",
            "ownerCategory": "SMHI",
            "from": 823132800000,
            "to": 1637222400000,
            "height": 355.0,
            "latitude": 68.044,
            "longitude": 21.755,
            "value": null
        },
        {
            "key": "71190",
            "name": "Nidingen A",
            "owner": "SMHI",
            "ownerCategory": "SMHI",
            "from": 818985600000,
            "to": 1637222400000,
            "height": 3.785,
            "latitude": 57.3036,
            "longitude": 11.9049,
            "value": [
                {
                    "date": 1637222400000,
                    "value": "7.4",
                    "quality": "G"
                }
            ]
        },
        {
            "key": "179960",
            "name": "Nikkaluokta A",
            "owner": "SMHI",
            "ownerCategory": "SMHI",
            "from": 815184000000,
            "to": 1637222400000,
            "height": 466.765,
            "latitude": 67.8527,
            "longitude": 19.0212,
            "value": [
                {
                    "date": 1637222400000,
                    "value": "0.9",
                    "quality": "G"
                }
            ]
        },
        {
            "key": "81540",
            "name": "Nordkoster A",
            "owner": "SMHI",
            "ownerCategory": "SMHI",
            "from": 957916800000,
            "to": 1637222400000,
            "height": 33.362,
            "latitude": 58.892,
            "longitude": 11.0038,
            "value": [
                {
                    "date": 1637222400000,
                    "value": "6.3",
                    "quality": "G"
                }
            ]
        },
        {
            "key": "125170",
            "name": "Norrberg-Norrhög V",
            "owner": "Trafikverket",
            "ownerCategory": "SMHI",
            "from": 823132800000,
            "to": 1637222400000,
            "height": 327.0,
            "latitude": 62.2632,
            "longitude": 15.6709,
            "value": null
        },
        {
            "key": "86340",
            "name": "Norrköping-SMHI",
            "owner": "SMHI",
            "ownerCategory": "SMHI",
            "from": 1375660800000,
            "to": 1637222400000,
            "height": 40.334,
            "latitude": 58.5828,
            "longitude": 16.147,
            "value": [
                {
                    "date": 1637222400000,
                    "value": "3.9",
                    "quality": "G"
                }
            ]
        },
        {
            "key": "149560",
            "name": "Norsjö A",
            "owner": "SMHI",
            "ownerCategory": "SMHI",
            "from": 815184000000,
            "to": 1637222400000,
            "height": 309.576,
            "latitude": 64.9253,
            "longitude": 19.3744,
            "value": [
                {
                    "date": 1637222400000,
                    "value": "1.8",
                    "quality": "G"
                }
            ]
        },
        {
            "key": "172940",
            "name": "Paharova A",
            "owner": "SMHI",
            "ownerCategory": "SMHI",
            "from": 817776000000,
            "to": 1637222400000,
            "height": 227.643,
            "latitude": 66.8094,
            "longitude": 22.3315,
            "value": [
                {
                    "date": 1637222400000,
                    "value": "0.8",
                    "quality": "G"
                }
            ]
        },
        {
            "key": "183750",
            "name": "Pajala A",
            "owner": "SMHI",
            "ownerCategory": "SMHI",
            "from": 1199145600000,
            "to": 1637222400000,
            "height": 163.774,
            "latitude": 67.2036,
            "longitude": 23.3899,
            "value": [
                {
                    "date": 1637222400000,
                    "value": "1.5",
                    "quality": "G"
                }
            ]
        },
        {
            "key": "182910",
            "name": "Parkalompolo A",
            "owner": "SMHI",
            "ownerCategory": "SMHI",
            "from": 818985600000,
            "to": 1637222400000,
            "height": 312.183,
            "latitude": 67.7301,
            "longitude": 22.8219,
            "value": [
                {
                    "date": 1637222400000,
                    "value": "1.8",
                    "quality": "G"
                }
            ]
        },
        {
            "key": "149340",
            "name": "Petisträsk A",
            "owner": "SMHI",
            "ownerCategory": "SMHI",
            "from": 818985600000,
            "to": 1637222400000,
            "height": 258.047,
            "latitude": 64.5659,
            "longitude": 19.6943,
            "value": [
                {
                    "date": 1637222400000,
                    "value": "0.9",
                    "quality": "G"
                }
            ]
        },
        {
            "key": "161710",
            "name": "Pite-Rönnskär A",
            "owner": "SMHI",
            "ownerCategory": "SMHI",
            "from": 818985600000,
            "to": 1637222400000,
            "height": 4.878,
            "latitude": 65.034,
            "longitude": 21.5609,
            "value": [
                {
                    "date": 1637222400000,
                    "value": "4.0",
                    "quality": "G"
                }
            ]
        },
        {
            "key": "83450",
            "name": "Pålgrunden A",
            "owner": "SMHI",
            "ownerCategory": "SMHI",
            "from": 974332800000,
            "to": 1637222400000,
            "height": 53.642,
            "latitude": 58.7551,
            "longitude": 13.1514,
            "value": [
                {
                    "date": 1637222400000,
                    "value": "7.9",
                    "quality": "G"
                }
            ]
        },
        {
            "key": "189720",
            "name": "Rensjön A",
            "owner": "SMHI",
            "ownerCategory": "SMHI",
            "from": 818985600000,
            "to": 1637222400000,
            "height": 493.651,
            "latitude": 68.073,
            "longitude": 19.8351,
            "value": [
                {
                    "date": 1637222400000,
                    "value": "0.7",
                    "quality": "G"
                }
            ]
        },
        {
            "key": "147420",
            "name": "Risträsk V",
            "owner": "Trafikverket",
            "ownerCategory": "SMHI",
            "from": 823132800000,
            "to": 1637222400000,
            "height": 598.0,
            "latitude": 64.7343,
            "longitude": 17.4034,
            "value": null
        },
        {
            "key": "177930",
            "name": "Ritsem A",
            "owner": "SMHI",
            "ownerCategory": "SMHI",
            "from": 873072000000,
            "to": 1637222400000,
            "height": 541.214,
            "latitude": 67.7255,
            "longitude": 17.4668,
            "value": [
                {
                    "date": 1637222400000,
                    "value": "3.0",
                    "quality": "G"
                }
            ]
        },
        {
            "key": "78290",
            "name": "Roma V",
            "owner": "Trafikverket",
            "ownerCategory": "SMHI",
            "from": 823132800000,
            "to": 1637222400000,
            "height": 32.0,
            "latitude": 57.5436,
            "longitude": 18.4253,
            "value": null
        },
        {
            "key": "65160",
            "name": "Ronneby-Bredåkra",
            "owner": "Försvarsmakten",
            "ownerCategory": "SMHI",
            "from": -773280000000,
            "to": 1637222400000,
            "height": 58.2,
            "latitude": 56.267,
            "longitude": 15.265,
            "value": [
                {
                    "date": 1637222400000,
                    "value": "3.0",
                    "quality": "G"
                }
            ]
        },
        {
            "key": "73480",
            "name": "Rångedala A",
            "owner": "SMHI",
            "ownerCategory": "SMHI",
            "from": 807235200000,
            "to": 1637222400000,
            "height": 297.467,
            "latitude": 57.7846,
            "longitude": 13.1642,
            "value": [
                {
                    "date": 1637222400000,
                    "value": "3.1",
                    "quality": "G"
                }
            ]
        },
        {
            "key": "162790",
            "name": "Rödkallen A",
            "owner": "SMHI",
            "ownerCategory": "SMHI",
            "from": 828316800000,
            "to": 1637222400000,
            "height": 1.932,
            "latitude": 65.3121,
            "longitude": 22.3709,
            "value": [
                {
                    "date": 1637222400000,
                    "value": "4.9",
                    "quality": "G"
                }
            ]
        },
        {
            "key": "182810",
            "name": "Saittarova A",
            "owner": "SMHI",
            "ownerCategory": "SMHI",
            "from": 818985600000,
            "to": 1637222400000,
            "height": 240.652,
            "latitude": 67.3363,
            "longitude": 22.2288,
            "value": [
                {
                    "date": 1637222400000,
                    "value": "0.7",
                    "quality": "G"
                }
            ]
        },
        {
            "key": "96560",
            "name": "Sala A",
            "owner": "SMHI",
            "ownerCategory": "SMHI",
            "from": 807235200000,
            "to": 1637222400000,
            "height": 56.575,
            "latitude": 59.9093,
            "longitude": 16.6843,
            "value": [
                {
                    "date": 1637222400000,
                    "value": "1.3",
                    "quality": "G"
                }
            ]
        },
        {
            "key": "145580",
            "name": "Saxnäs V",
            "owner": "Trafikverket",
            "ownerCategory": "SMHI",
            "from": 907200000000,
            "to": 1637222400000,
            "height": 542.0,
            "latitude": 64.9678,
            "longitude": 15.3791,
            "value": null
        },
        {
            "key": "139120",
            "name": "Skagsudde A",
            "owner": "SMHI",
            "ownerCategory": "SMHI",
            "from": 815184000000,
            "to": 1637222400000,
            "height": 9.343,
            "latitude": 63.1872,
            "longitude": 19.0199,
            "value": [
                {
                    "date": 1637222400000,
                    "value": "6.2",
                    "quality": "G"
                }
            ]
        },
        {
            "key": "98160",
            "name": "Skarpö A",
            "owner": "SMHI",
            "ownerCategory": "SMHI",
            "from": 1422968400000,
            "to": 1637222400000,
            "height": 19.287,
            "latitude": 59.3446,
            "longitude": 18.7404,
            "value": [
                {
                    "date": 1637222400000,
                    "value": "3.9",
                    "quality": "G"
                }
            ]
        },
        {
            "key": "151380",
            "name": "Skellefteå Flygplats",
            "owner": "Flygplatsbolag (kommun/landsting)",
            "ownerCategory": "SMHI",
            "from": 1136073600000,
            "to": 1637222400000,
            "height": 48.0,
            "latitude": 64.6244,
            "longitude": 21.0717,
            "value": [
                {
                    "date": 1637222400000,
                    "value": "3.0",
                    "quality": "G"
                }
            ]
        },
        {
            "key": "54290",
            "name": "Skillinge A",
            "owner": "SMHI",
            "ownerCategory": "SMHI",
            "from": 812505600000,
            "to": 1637222400000,
            "height": 4.016,
            "latitude": 55.489,
            "longitude": 14.3144,
            "value": [
                {
                    "date": 1637222400000,
                    "value": "4.9",
                    "quality": "G"
                }
            ]
        },
        {
            "key": "154730",
            "name": "Stekenjokk A",
            "owner": "SMHI",
            "ownerCategory": "SMHI",
            "from": 814665600000,
            "to": 1637222400000,
            "height": 1037.322,
            "latitude": 65.0929,
            "longitude": 14.5055,
            "value": [
                {
                    "date": 1637222400000,
                    "value": "0.0",
                    "quality": "G"
                }
            ]
        },
        {
            "key": "97400",
            "name": "Stockholm-Arlanda",
            "owner": "Swedavia",
            "ownerCategory": "SMHI",
            "from": 1201824000000,
            "to": 1637222400000,
            "height": 42.0,
            "latitude": 59.6269,
            "longitude": 17.9545,
            "value": [
                {
                    "date": 1637222400000,
                    "value": "1.0",
                    "quality": "G"
                }
            ]
        },
        {
            "key": "97200",
            "name": "Stockholm-Bromma",
            "owner": "Swedavia",
            "ownerCategory": "SMHI",
            "from": -978307200000,
            "to": 1637222400000,
            "height": 14.0,
            "latitude": 59.3537,
            "longitude": 17.9513,
            "value": [
                {
                    "date": 1637222400000,
                    "value": "2.0",
                    "quality": "G"
                }
            ]
        },
        {
            "key": "178860",
            "name": "Stora Sjöfallet A",
            "owner": "SMHI",
            "ownerCategory": "SMHI",
            "from": 825638400000,
            "to": 1637222400000,
            "height": 426.536,
            "latitude": 67.4948,
            "longitude": 18.2907,
            "value": [
                {
                    "date": 1637222400000,
                    "value": "2.7",
                    "quality": "G"
                }
            ]
        },
        {
            "key": "105220",
            "name": "Stora Spånsberget A",
            "owner": "SMHI",
            "ownerCategory": "SMHI",
            "from": 807235200000,
            "to": 1637222400000,
            "height": 492.257,
            "latitude": 60.3817,
            "longitude": 15.1374,
            "value": [
                {
                    "date": 1637222400000,
                    "value": "2.4",
                    "quality": "G"
                }
            ]
        },
        {
            "key": "112530",
            "name": "Storbo V",
            "owner": "Trafikverket",
            "ownerCategory": "SMHI",
            "from": 862444800000,
            "to": 1637222400000,
            "height": 661.0,
            "latitude": 61.8403,
            "longitude": 12.288,
            "value": null
        },
        {
            "key": "132170",
            "name": "Storlien-Storvallen A",
            "owner": "SMHI",
            "ownerCategory": "SMHI",
            "from": 1257033600000,
            "to": 1637222400000,
            "height": 583.124,
            "latitude": 63.2826,
            "longitude": 12.1218,
            "value": [
                {
                    "date": 1637222400000,
                    "value": "4.6",
                    "quality": "G"
                }
            ]
        },
        {
            "key": "163900",
            "name": "Storön A",
            "owner": "SMHI",
            "ownerCategory": "SMHI",
            "from": 820454400000,
            "to": 1637222400000,
            "height": 2.394,
            "latitude": 65.6972,
            "longitude": 23.0959,
            "value": [
                {
                    "date": 1637222400000,
                    "value": "4.7",
                    "quality": "G"
                }
            ]
        },
        {
            "key": "53300",
            "name": "Sturup",
            "owner": "Swedavia",
            "ownerCategory": "SMHI",
            "from": 1199145600000,
            "to": 1637222400000,
            "height": 72.0,
            "latitude": 55.5231,
            "longitude": 13.3787,
            "value": [
                {
                    "date": 1637222400000,
                    "value": "6.0",
                    "quality": "G"
                }
            ]
        },
        {
            "key": "127230",
            "name": "Sundsvall-Råsta V",
            "owner": "Trafikverket",
            "ownerCategory": "SMHI",
            "from": 823132800000,
            "to": 1637222400000,
            "height": 83.0,
            "latitude": 62.4306,
            "longitude": 17.3447,
            "value": null
        },
        {
            "key": "127310",
            "name": "Sundsvalls Flygplats",
            "owner": "Swedavia",
            "ownerCategory": "SMHI",
            "from": -834624000000,
            "to": 1637222400000,
            "height": 4.0,
            "latitude": 62.5246,
            "longitude": 17.441,
            "value": [
                {
                    "date": 1637222400000,
                    "value": "1.0",
                    "quality": "G"
                }
            ]
        },
        {
            "key": "93520",
            "name": "Sunne A",
            "owner": "SMHI",
            "ownerCategory": "SMHI",
            "from": 807235200000,
            "to": 1637222400000,
            "height": 108.947,
            "latitude": 59.8639,
            "longitude": 13.1166,
            "value": [
                {
                    "date": 1637222400000,
                    "value": "0.7",
                    "quality": "G"
                }
            ]
        },
        {
            "key": "98490",
            "name": "Svanberga A",
            "owner": "SMHI",
            "ownerCategory": "SMHI",
            "from": 807235200000,
            "to": 1637222400000,
            "height": 14.821,
            "latitude": 59.8317,
            "longitude": 18.6313,
            "value": [
                {
                    "date": 1637222400000,
                    "value": "1.8",
                    "quality": "G"
                }
            ]
        },
        {
            "key": "124030",
            "name": "Sveg A",
            "owner": "SMHI",
            "ownerCategory": "SMHI",
            "from": 1254355200000,
            "to": 1637222400000,
            "height": 357.187,
            "latitude": 62.0462,
            "longitude": 14.4069,
            "value": [
                {
                    "date": 1637222400000,
                    "value": "0.6",
                    "quality": "G"
                }
            ]
        },
        {
            "key": "99270",
            "name": "Svenska Högarna",
            "owner": "SMHI",
            "ownerCategory": "SMHI",
            "from": -662688000000,
            "to": 1637222400000,
            "height": 10.145,
            "latitude": 59.4439,
            "longitude": 19.5028,
            "value": null
        },
        {
            "key": "99280",
            "name": "Svenska Högarna A",
            "owner": "SMHI",
            "ownerCategory": "SMHI",
            "from": 1275350400000,
            "to": 1637222400000,
            "height": 11.811,
            "latitude": 59.4423,
            "longitude": 19.5022,
            "value": [
                {
                    "date": 1637222400000,
                    "value": "7.3",
                    "quality": "G"
                }
            ]
        },
        {
            "key": "132030",
            "name": "Sylarna A",
            "owner": "SMHI",
            "ownerCategory": "SMHI",
            "from": 816879600000,
            "to": 1637222400000,
            "height": 1030.11,
            "latitude": 63.0438,
            "longitude": 12.2748,
            "value": [
                {
                    "date": 1637222400000,
                    "value": "6.8",
                    "quality": "G"
                }
            ]
        },
        {
            "key": "113070",
            "name": "Sälen-Högfjället V",
            "owner": "Trafikverket",
            "ownerCategory": "SMHI",
            "from": 823132800000,
            "to": 1637222400000,
            "height": 751.0,
            "latitude": 61.1583,
            "longitude": 13.1138,
            "value": null
        },
        {
            "key": "82260",
            "name": "Såtenäs",
            "owner": "Försvarsmakten",
            "ownerCategory": "SMHI",
            "from": 12787200000,
            "to": 1637222400000,
            "height": 55.1,
            "latitude": 58.428,
            "longitude": 12.711,
            "value": [
                {
                    "date": 1637222400000,
                    "value": "6.0",
                    "quality": "G"
                }
            ]
        },
        {
            "key": "99450",
            "name": "Söderarm A",
            "owner": "SMHI",
            "ownerCategory": "SMHI",
            "from": 816912000000,
            "to": 1637222400000,
            "height": 14.006,
            "latitude": 59.7531,
            "longitude": 19.4054,
            "value": [
                {
                    "date": 1637222400000,
                    "value": "9.5",
                    "quality": "G"
                }
            ]
        },
        {
            "key": "178970",
            "name": "Tarfala A",
            "owner": "SMHI",
            "ownerCategory": "SMHI",
            "from": 815184000000,
            "to": 1637222400000,
            "height": 1143.653,
            "latitude": 67.9124,
            "longitude": 18.6101,
            "value": [
                {
                    "date": 1637222400000,
                    "value": "9.9",
                    "quality": "G"
                }
            ]
        },
        {
            "key": "169790",
            "name": "Tjåkaape Mo",
            "owner": "Försvarsmakten",
            "ownerCategory": "SMHI",
            "from": 1146441600000,
            "to": 1637222400000,
            "height": 580.4,
            "latitude": 66.309,
            "longitude": 19.21,
            "value": [
                {
                    "date": 1637222400000,
                    "value": "1.0",
                    "quality": "G"
                }
            ]
        },
        {
            "key": "74300",
            "name": "Tomtabacken A",
            "owner": "SMHI",
            "ownerCategory": "SMHI",
            "from": 814665600000,
            "to": 1637222400000,
            "height": 355.895,
            "latitude": 57.4981,
            "longitude": 14.4645,
            "value": [
                {
                    "date": 1637222400000,
                    "value": "2.5",
                    "quality": "G"
                }
            ]
        },
        {
            "key": "126290",
            "name": "Torpshammar A",
            "owner": "SMHI",
            "ownerCategory": "SMHI",
            "from": 820454400000,
            "to": 1637222400000,
            "height": 99.0,
            "latitude": 62.4943,
            "longitude": 16.2774,
            "value": [
                {
                    "date": 1637222400000,
                    "value": "0.0",
                    "quality": "G"
                }
            ]
        },
        {
            "key": "63590",
            "name": "Torup A",
            "owner": "SMHI",
            "ownerCategory": "SMHI",
            "from": 1199145600000,
            "to": 1637222400000,
            "height": 132.532,
            "latitude": 56.9494,
            "longitude": 13.0601,
            "value": [
                {
                    "date": 1637222400000,
                    "value": "3.8",
                    "quality": "G"
                }
            ]
        },
        {
            "key": "97100",
            "name": "Tullinge A",
            "owner": "SMHI",
            "ownerCategory": "SMHI",
            "from": 818985600000,
            "to": 1637222400000,
            "height": 44.858,
            "latitude": 59.1785,
            "longitude": 17.9093,
            "value": [
                {
                    "date": 1637222400000,
                    "value": "2.4",
                    "quality": "G"
                }
            ]
        },
        {
            "key": "122260",
            "name": "Tännäs A",
            "owner": "SMHI",
            "ownerCategory": "SMHI",
            "from": 816912000000,
            "to": 1637222400000,
            "height": 723.013,
            "latitude": 62.4494,
            "longitude": 12.6676,
            "value": [
                {
                    "date": 1637222400000,
                    "value": "0.7",
                    "quality": "G"
                }
            ]
        },
        {
            "key": "72090",
            "name": "Ullared A",
            "owner": "SMHI",
            "ownerCategory": "SMHI",
            "from": 807235200000,
            "to": 1637222400000,
            "height": 122.356,
            "latitude": 57.1134,
            "longitude": 12.7732,
            "value": [
                {
                    "date": 1637222400000,
                    "value": "1.3",
                    "quality": "G"
                }
            ]
        },
        {
            "key": "140480",
            "name": "Umeå Flygplats",
            "owner": "Swedavia",
            "ownerCategory": "SMHI",
            "from": 363312000000,
            "to": 1637222400000,
            "height": 14.0,
            "latitude": 63.7947,
            "longitude": 20.2918,
            "value": [
                {
                    "date": 1637222400000,
                    "value": "1.0",
                    "quality": "G"
                }
            ]
        },
        {
            "key": "97510",
            "name": "Uppsala Aut",
            "owner": "Uppsala universitet",
            "ownerCategory": "SMHI",
            "from": 883612800000,
            "to": 1637222400000,
            "height": 23.453,
            "latitude": 59.8471,
            "longitude": 17.632,
            "value": [
                {
                    "date": 1637222400000,
                    "value": "1.9",
                    "quality": "G"
                }
            ]
        },
        {
            "key": "97530",
            "name": "Uppsala Flygplats",
            "owner": "Försvarsmakten",
            "ownerCategory": "SMHI",
            "from": -804816000000,
            "to": 1637222400000,
            "height": 20.6,
            "latitude": 59.9,
            "longitude": 17.593,
            "value": [
                {
                    "date": 1637222400000,
                    "value": "1.0",
                    "quality": "G"
                }
            ]
        },
        {
            "key": "55570",
            "name": "Utklippan A",
            "owner": "SMHI",
            "ownerCategory": "SMHI",
            "from": 830908800000,
            "to": 1637222400000,
            "height": 2.391,
            "latitude": 55.9557,
            "longitude": 15.7048,
            "value": [
                {
                    "date": 1637222400000,
                    "value": "11.5",
                    "quality": "G"
                }
            ]
        },
        {
            "key": "169860",
            "name": "Vajmat V",
            "owner": "Trafikverket",
            "ownerCategory": "SMHI",
            "from": 823132800000,
            "to": 1637222400000,
            "height": 325.0,
            "latitude": 66.505,
            "longitude": 19.675,
            "value": null
        },
        {
            "key": "160970",
            "name": "Vidsel Mo",
            "owner": "Försvarsmakten",
            "ownerCategory": "SMHI",
            "from": 830908800000,
            "to": 1637222400000,
            "height": 182.566,
            "latitude": 65.875,
            "longitude": 20.15,
            "value": [
                {
                    "date": 1637222400000,
                    "value": "2.0",
                    "quality": "G"
                }
            ]
        },
        {
            "key": "146350",
            "name": "Vilhelmina A",
            "owner": "SMHI",
            "ownerCategory": "SMHI",
            "from": 812505600000,
            "to": 1637222400000,
            "height": 348.198,
            "latitude": 64.5798,
            "longitude": 16.8386,
            "value": [
                {
                    "date": 1637222400000,
                    "value": "2.3",
                    "quality": "G"
                }
            ]
        },
        {
            "key": "71380",
            "name": "Vinga A",
            "owner": "SMHI",
            "ownerCategory": "SMHI",
            "from": 1180656000000,
            "to": 1637222400000,
            "height": 18.205,
            "latitude": 57.6322,
            "longitude": 11.6048,
            "value": [
                {
                    "date": 1637222400000,
                    "value": "8.8",
                    "quality": "G"
                }
            ]
        },
        {
            "key": "78400",
            "name": "Visby Flygplats",
            "owner": "Swedavia",
            "ownerCategory": "SMHI",
            "from": -662688000000,
            "to": 1637222400000,
            "height": 42.0,
            "latitude": 57.6614,
            "longitude": 18.3428,
            "value": [
                {
                    "date": 1637222400000,
                    "value": "7.0",
                    "quality": "G"
                }
            ]
        },
        {
            "key": "84050",
            "name": "Visingsö A",
            "owner": "SMHI",
            "ownerCategory": "SMHI",
            "from": 818985600000,
            "to": 1637222400000,
            "height": 93.582,
            "latitude": 58.0948,
            "longitude": 14.4058,
            "value": [
                {
                    "date": 1637222400000,
                    "value": "7.6",
                    "quality": "G"
                }
            ]
        },
        {
            "key": "81350",
            "name": "Väderöarna A",
            "owner": "SMHI",
            "ownerCategory": "SMHI",
            "from": 958089600000,
            "to": 1637222400000,
            "height": 22.356,
            "latitude": 58.576,
            "longitude": 11.0661,
            "value": [
                {
                    "date": 1637222400000,
                    "value": "10.5",
                    "quality": "G"
                }
            ]
        },
        {
            "key": "138070",
            "name": "Västmarkum A",
            "owner": "SMHI",
            "ownerCategory": "SMHI",
            "from": 818985600000,
            "to": 1637222400000,
            "height": 141.392,
            "latitude": 63.1243,
            "longitude": 18.2518,
            "value": [
                {
                    "date": 1637222400000,
                    "value": "3.8",
                    "quality": "G"
                }
            ]
        },
        {
            "key": "64510",
            "name": "Växjö A",
            "owner": "SMHI",
            "ownerCategory": "SMHI",
            "from": 807235200000,
            "to": 1637222400000,
            "height": 198.861,
            "latitude": 56.8463,
            "longitude": 14.8296,
            "value": [
                {
                    "date": 1637222400000,
                    "value": "5.0",
                    "quality": "G"
                }
            ]
        },
        {
            "key": "173900",
            "name": "Ylinenjärvi A",
            "owner": "SMHI",
            "ownerCategory": "SMHI",
            "from": 818985600000,
            "to": 1637222400000,
            "height": 133.672,
            "latitude": 66.6223,
            "longitude": 23.4635,
            "value": [
                {
                    "date": 1637222400000,
                    "value": "0.0",
                    "quality": "G"
                }
            ]
        },
        {
            "key": "114140",
            "name": "Älvdalen A",
            "owner": "SMHI",
            "ownerCategory": "SMHI",
            "from": 807235200000,
            "to": 1637222400000,
            "height": 251.633,
            "latitude": 61.2536,
            "longitude": 14.0355,
            "value": [
                {
                    "date": 1637222400000,
                    "value": "0.0",
                    "quality": "G"
                }
            ]
        },
        {
            "key": "161910",
            "name": "Älvsbyn A",
            "owner": "SMHI",
            "ownerCategory": "SMHI",
            "from": 813974400000,
            "to": 1637222400000,
            "height": 43.384,
            "latitude": 65.6691,
            "longitude": 21.062,
            "value": [
                {
                    "date": 1637222400000,
                    "value": "0.6",
                    "quality": "G"
                }
            ]
        },
        {
            "key": "106570",
            "name": "Åmot A",
            "owner": "SMHI",
            "ownerCategory": "SMHI",
            "from": 807235200000,
            "to": 1637222400000,
            "height": 161.678,
            "latitude": 60.9614,
            "longitude": 16.4279,
            "value": [
                {
                    "date": 1637222400000,
                    "value": "0.8",
                    "quality": "G"
                }
            ]
        },
        {
            "key": "133250",
            "name": "Åre-Björnänge V",
            "owner": "Trafikverket",
            "ownerCategory": "SMHI",
            "from": 987465600000,
            "to": 1637222400000,
            "height": 403.0,
            "latitude": 63.3738,
            "longitude": 13.1607,
            "value": null
        },
        {
            "key": "82090",
            "name": "Åsbräcka-Torpabron V",
            "owner": "Trafikverket",
            "ownerCategory": "SMHI",
            "from": 859852800000,
            "to": 1637222400000,
            "height": 17.0,
            "latitude": 58.1997,
            "longitude": 12.1541,
            "value": null
        },
        {
            "key": "147090",
            "name": "Åsele A",
            "owner": "SMHI",
            "ownerCategory": "SMHI",
            "from": 818985600000,
            "to": 1637222400000,
            "height": 307.712,
            "latitude": 64.165,
            "longitude": 17.3153,
            "value": [
                {
                    "date": 1637222400000,
                    "value": "0.0",
                    "quality": "G"
                }
            ]
        },
        {
            "key": "77210",
            "name": "Ölands norra udde A",
            "owner": "SMHI",
            "ownerCategory": "SMHI",
            "from": 807235200000,
            "to": 1637222400000,
            "height": 2.762,
            "latitude": 57.3671,
            "longitude": 17.0954,
            "value": [
                {
                    "date": 1637222400000,
                    "value": "6.0",
                    "quality": "G"
                }
            ]
        },
        {
            "key": "66110",
            "name": "Ölands södra udde A",
            "owner": "SMHI",
            "ownerCategory": "SMHI",
            "from": 815184000000,
            "to": 1637222400000,
            "height": 1.53,
            "latitude": 56.1977,
            "longitude": 16.4005,
            "value": [
                {
                    "date": 1637222400000,
                    "value": "8.4",
                    "quality": "G"
                }
            ]
        },
        {
            "key": "95130",
            "name": "Örebro Flygplats",
            "owner": "Flygplatsbolag (kommun/landsting)",
            "ownerCategory": "SMHI",
            "from": 1259625600000,
            "to": 1637222400000,
            "height": 53.0,
            "latitude": 59.2289,
            "longitude": 15.0455,
            "value": [
                {
                    "date": 1637222400000,
                    "value": "3.0",
                    "quality": "G"
                }
            ]
        },
        {
            "key": "138240",
            "name": "Örnsköldsviks Flygplats",
            "owner": "Swedavia",
            "ownerCategory": "SMHI",
            "from": 1199145600000,
            "to": 1637222400000,
            "height": 108.0,
            "latitude": 63.4119,
            "longitude": 18.9797,
            "value": [
                {
                    "date": 1637222400000,
                    "value": "4.0",
                    "quality": "G"
                }
            ]
        },
        {
            "key": "108320",
            "name": "Örskär A",
            "owner": "SMHI",
            "ownerCategory": "SMHI",
            "from": 816912000000,
            "to": 1637222400000,
            "height": 6.539,
            "latitude": 60.5256,
            "longitude": 18.3729,
            "value": [
                {
                    "date": 1637222400000,
                    "value": "7.2",
                    "quality": "G"
                }
            ]
        },
        {
            "key": "78280",
            "name": "Östergarnsholm A",
            "owner": "SMHI",
            "ownerCategory": "SMHI",
            "from": 820454400000,
            "to": 1637222400000,
            "height": 8.127,
            "latitude": 57.4408,
            "longitude": 18.9839,
            "value": [
                {
                    "date": 1637222400000,
                    "value": "7.5",
                    "quality": "G"
                }
            ]
        },
        {
            "key": "172770",
            "name": "Överkalix-Svartbyn A",
            "owner": "SMHI",
            "ownerCategory": "SMHI",
            "from": 817776000000,
            "to": 1637222400000,
            "height": 61.024,
            "latitude": 66.2618,
            "longitude": 22.8427,
            "value": [
                {
                    "date": 1637222400000,
                    "value": "0.6",
                    "quality": "G"
                }
            ]
        }
    ],
    "updated": 1637222400000,
    "parameter": {
        "key": "4",
        "name": "Vindhastighet",
        "summary": "medelvärde 10 min, 1 gång/tim",
        "unit": "metre per second"
    },
    "period": {
        "key": "latest-hour",
        "from": 1637218801000,
        "to": 1637222400000,
        "summary": "Data från senaste timmen",
        "sampling": "10 minuter"
    },
    "link": [
        {
            "rel": "data",
            "type": "application/json",
            "href": "https://opendata-download-metobs.smhi.se/api/version/1.0/parameter/4/station-set/all/period/latest-hour/data.json"
        },
        {
            "rel": "data",
            "type": "application/xml",
            "href": "https://opendata-download-metobs.smhi.se/api/version/1.0/parameter/4/station-set/all/period/latest-hour/data.xml"
        },
        {
            "rel": "data",
            "type": "text/plain",
            "href": "https://opendata-download-metobs.smhi.se/api/version/1.0/parameter/4/station-set/all/period/latest-hour/data.csv"
        },
        {
            "rel": "period",
            "type": "application/atom+xml",
            "href": "https://opendata-download-metobs.smhi.se/api/version/1.0/parameter/4/station-set/all/period/latest-hour.atom"
        },
        {
            "rel": "iso19139",
            "type": "application/vnd.iso.19139+xml",
            "href": "https://opendata-catalog.smhi.se/catalog/srv/eng/csw?request=GetRecordById&service=CSW&version=2.0.2&elementSetName=full&outputSchema=csw:IsoRecord&id=25080190-38ba-4279-a65d-d9ef8d0bf949"
        },
        {
            "rel": "iso19139",
            "type": "application/vnd.iso.19139+xml",
            "href": "https://opendata-catalog.smhi.se/catalog/srv/eng/csw?request=GetRecordById&service=CSW&version=2.0.2&elementSetName=full&outputSchema=csw:IsoRecord&id=bbcb137b-b8fc-450c-b67d-6c3239dbe0de"
        }
    ]
}